City,Country,Date,Lat,Lng,Max Temp,Humidity,Cloudiness,Wind Speed
porto novo,BJ,1643912886,6.4965,2.6036,84.02,64,75,8.39
kapaa,US,1643912886,22.0752,-159.319,71.92,77,20,11.5
itarema,BR,1643912887,-2.9248,-39.9167,85.23,65,78,16.22
pyapon,MM,1643912888,16.2833,95.6833,68.25,65,14,5.97
rikitea,PF,1643912683,-23.1203,-134.9692,77.36,77,100,14.41
busselton,AU,1643912889,-33.65,115.3333,79.05,42,63,8.7
divnogorsk,RU,1643912889,55.9594,92.3619,-4.27,99,55,4.83
mataura,NZ,1643912890,-46.1927,168.8643,51.48,96,100,1.88
odlabari,IN,1643912890,26.8333,88.6167,60.26,57,78,5.55
jibuti,DJ,1643912831,11.5,42.5,74.62,60,11,11.63
tooele,US,1643912891,40.5308,-112.2983,26.42,59,100,0.0
arraial do cabo,BR,1643912882,-22.9661,-42.0278,80.56,78,75,10.36
manggar,ID,1643912892,-2.8833,108.2667,78.39,85,96,5.1
lerwick,GB,1643912892,60.1545,-1.1494,42.8,82,100,31.65
svetlyy,RU,1643912601,54.675,20.1347,33.85,98,100,8.12
songea,TZ,1643912893,-10.6833,35.65,65.17,96,49,0.56
dajal,PK,1643912894,29.5577,70.3762,56.95,32,0,4.52
avarua,CK,1643912894,-21.2078,-159.775,80.65,83,75,14.97
jumla,NP,1643912895,29.2747,82.1838,35.02,96,100,7.99
bluff,NZ,1643912895,-46.6,168.3333,51.8,78,100,3.38
butaritari,KI,1643912896,3.0707,172.7902,80.02,80,54,11.41
hermanus,ZA,1643912896,-34.4187,19.2345,65.89,76,49,10.16
dingle,PH,1643912897,10.9995,122.6711,75.09,94,79,8.3
mahibadhoo,MV,1643912898,3.7833,72.9667,81.88,67,8,7.0
hilo,US,1643912693,19.7297,-155.09,72.39,69,40,8.05
atambua,ID,1643912898,-9.1061,124.8925,73.87,91,93,3.4
ribeira grande,PT,1643912899,38.5167,-28.7,61.2,67,20,17.27
hithadhoo,MV,1643912899,-0.6,73.0833,81.75,70,95,4.36
punta arenas,CL,1643912689,-53.15,-70.9167,51.82,53,0,9.22
saint anthony,US,1643912900,45.0205,-93.218,3.88,56,0,1.99
luderitz,NA,1643912901,-26.6481,15.1594,69.82,69,3,16.67
ushuaia,AR,1643912897,-54.8,-68.3,47.82,61,75,14.97
menzelinsk,RU,1643912901,55.7271,53.1026,29.44,99,100,0.87
wuan,CN,1643912902,31.6836,112.0044,36.54,50,6,0.81
derzhavinsk,KZ,1643912902,51.1,66.3167,9.57,84,58,7.76
salzkotten,DE,1643912903,51.6717,8.6009,43.43,87,100,8.05
yenagoa,NG,1643912903,4.9247,6.2642,82.53,65,96,5.61
carnarvon,AU,1643912904,-24.8667,113.6333,80.67,78,1,8.05
bathsheba,BB,1643912905,13.2167,-59.5167,84.81,58,40,17.27
cape town,ZA,1643912833,-33.9258,18.4232,67.26,64,40,1.99
morwell,AU,1643912905,-38.2333,146.4,53.91,93,5,1.45
hobart,AU,1643912787,-42.8794,147.3294,48.06,85,14,9.22
itaqui,BR,1643912906,-29.1253,-56.5531,74.98,91,91,22.17
saint george,US,1643912906,37.1041,-113.5841,40.95,25,0,5.99
vilhena,BR,1643912907,-12.7406,-60.1458,77.22,83,40,5.75
puerto penasco,MX,1643912908,31.3167,-113.5333,54.91,16,0,4.0
castro,BR,1643912908,-24.7911,-50.0119,75.09,78,76,3.67
norman wells,CA,1643912909,65.282,-126.8329,-47.16,59,20,0.0
tupelo,US,1643912910,34.2576,-88.7034,40.89,93,100,15.01
buala,SB,1643912910,-8.145,159.5921,78.76,87,100,10.67
ulaangom,MN,1643912911,49.9811,92.0667,-21.95,86,23,3.53
yekaterinovka,RU,1643912911,52.0508,44.3451,33.13,100,100,4.94
albany,US,1643912724,42.6001,-73.9662,44.55,87,100,1.79
padang,ID,1643912912,-0.9492,100.3543,75.25,92,100,2.64
challapata,BO,1643912912,-18.9,-66.7667,52.79,68,99,2.89
korla,CN,1643912913,41.7597,86.1469,25.9,51,100,5.3
sobolevo,RU,1643912914,54.4299,31.8996,21.9,95,100,8.81
longyearbyen,SJ,1643912914,78.2186,15.6401,17.44,67,0,0.0
xai-xai,MZ,1643912915,-25.0519,33.6442,80.24,75,0,12.84
chippewa falls,US,1643912886,44.9369,-91.3929,6.39,57,0,0.0
bajil,YE,1643912915,15.0584,43.2851,79.93,64,78,7.47
leningradskiy,RU,1643912905,69.3833,178.4167,-12.91,85,22,9.01
chuy,UY,1643912916,-33.6971,-53.4616,86.58,56,47,9.93
rexburg,US,1643912916,43.826,-111.7897,16.86,72,100,3.44
vaini,TO,1643912917,-21.2,-175.2,71.76,100,20,2.3
klaksvik,FO,1643912917,62.2266,-6.589,38.32,69,75,42.73
palmer,US,1643912918,42.1584,-72.3287,46.33,84,100,5.75
klyuchi,RU,1643912919,52.2667,79.1667,2.17,98,93,6.46
ust-kuyga,RU,1643912919,70.0167,135.6,-33.88,100,93,3.09
port alfred,ZA,1643912919,-33.5906,26.891,72.46,80,86,17.2
naze,JP,1643912920,28.3667,129.4833,56.01,77,100,14.0
atuona,PF,1643912920,-9.8,-139.0333,78.35,70,24,17.74
pevek,RU,1643912921,69.7008,170.3133,-13.31,84,14,2.62
neyshabur,IR,1643912921,36.2133,58.7958,42.57,38,35,1.59
namibe,AO,1643912922,-15.1961,12.1522,74.88,67,0,12.73
kodiak,US,1643912922,57.79,-152.4072,38.71,93,100,17.27
mar del plata,AR,1643912682,-38.0023,-57.5575,73.87,83,0,4.61
mwinilunga,ZM,1643912923,-11.7358,24.4293,63.57,98,97,6.38
prince rupert,CA,1643912923,54.3161,-130.3201,42.89,93,100,14.97
saldanha,ZA,1643912924,-33.0117,17.9442,68.05,79,39,9.95
batagay-alyta,RU,1643912925,67.8006,130.4114,-18.38,96,95,4.03
yellowknife,CA,1643912925,62.456,-114.3525,-23.58,74,0,8.05
kangaba,ML,1643912926,11.9333,-8.4167,86.97,9,2,4.54
olinda,BR,1643912832,-8.0089,-34.8553,83.93,70,40,12.66
sitka,US,1643912926,57.0531,-135.33,37.29,93,100,6.91
tuatapere,NZ,1643912759,-46.1333,167.6833,51.82,92,100,2.98
mackay,AU,1643912927,-21.15,149.2,76.98,94,75,6.91
inuvik,CA,1643912927,68.3499,-133.7218,-18.36,72,40,2.3
hasaki,JP,1643912928,35.7333,140.8333,32.4,49,86,14.56
severo-kurilsk,RU,1643912928,50.6789,156.125,29.66,85,100,8.39
nome,US,1643912827,64.5011,-165.4064,5.16,57,0,33.38
merced,US,1643912929,37.1666,-120.7516,51.06,48,41,1.36
iqaluit,CA,1643912837,63.7506,-68.5145,-9.31,63,100,8.99
saint-philippe,RE,1643912930,-21.3585,55.7679,80.15,89,100,36.69
nioro,GM,1643912930,13.35,-15.75,98.01,6,3,8.95
torbay,CA,1643912931,47.6666,-52.7314,35.38,76,75,23.02
ilulissat,GL,1643912931,69.2167,-51.1,17.62,45,75,25.32
banda aceh,ID,1643912702,5.5577,95.3222,78.6,81,94,2.95
port elizabeth,ZA,1643912852,-33.918,25.5701,68.29,77,20,16.11
wanning,CN,1643912932,18.8003,110.3967,56.59,88,95,8.86
cabo san lucas,MX,1643912932,22.8909,-109.9124,73.71,56,20,6.91
jamestown,US,1643912883,42.097,-79.2353,31.08,55,100,11.5
swan river,CA,1643912933,52.1058,-101.2676,-14.91,70,74,3.44
east london,ZA,1643912934,-33.0153,27.9116,68.94,94,40,6.91
hami,CN,1643912689,42.8,93.45,24.67,35,35,2.55
ahuimanu,US,1643912934,21.4447,-157.8378,74.46,72,0,1.01
sao filipe,CV,1643912910,14.8961,-24.4956,75.2,68,0,7.65
talnakh,RU,1643912935,69.4865,88.3972,-13.31,99,100,6.6
ilhabela,BR,1643912674,-23.7781,-45.3581,79.05,85,86,8.59
natal,BR,1643912935,-5.795,-35.2094,88.02,66,40,18.41
banamba,ML,1643912936,13.55,-7.45,83.34,9,1,7.61
yatou,CN,1643912936,37.15,122.3833,28.45,69,54,7.07
polunochnoye,RU,1643912937,60.8697,60.4153,16.79,98,100,0.6
broome,US,1643912938,42.2506,-75.833,38.01,86,100,3.0
palasa,IN,1643912938,18.7667,84.4167,71.53,76,29,7.92
sabzevar,IR,1643912939,36.2126,57.6819,36.68,70,0,9.22
chokurdakh,RU,1643912939,70.6333,147.9167,-27.67,99,79,2.77
kallifitos,GR,1643912940,41.1667,24.2167,44.91,74,8,7.78
jacqueville,CI,1643912940,5.2052,-4.4146,84.11,77,7,10.47
port-gentil,GA,1643912941,-0.7193,8.7815,80.56,83,20,3.44
hede,CN,1643912942,33.7681,120.2517,32.07,61,67,3.53
olafsvik,IS,1643912942,64.8945,-23.7142,25.5,65,84,11.95
puerto ayora,EC,1643912943,-0.7393,-90.3518,82.36,85,10,5.99
qaanaaq,GL,1643912943,77.484,-69.3632,-14.4,64,92,8.12
new norfolk,AU,1643912944,-42.7826,147.0587,47.71,72,9,2.64
santa marta,CO,1643912722,11.2408,-74.199,86.9,66,20,6.91
ghanzi,BW,1643912945,-21.5667,21.7833,77.27,55,78,2.77
konevo,RU,1643912946,62.1215,39.3192,-4.13,100,90,3.02
lat yao,TH,1643912946,15.751,99.7893,81.52,62,23,5.17
narsaq,GL,1643912947,60.9167,-46.05,23.22,95,100,8.12
marsh harbour,BS,1643912947,26.5412,-77.0636,73.83,67,69,21.36
chapais,CA,1643912715,49.7834,-74.8492,-6.02,76,97,7.27
airai,TL,1643912948,-8.9266,125.4092,60.82,94,99,3.04
peace river,CA,1643912948,56.2501,-117.286,-10.89,77,75,6.91
de-kastri,RU,1643912949,51.4667,140.7833,5.83,90,100,14.76
nikolskoye,RU,1643912836,59.7035,30.7861,6.69,100,88,1.57
deming,US,1643912949,32.2687,-107.7586,31.24,51,0,18.41
barrow,US,1643912950,71.2906,-156.7887,-23.78,76,0,0.0
les cayes,HT,1643912950,18.2,-73.75,83.16,61,5,12.53
rio branco,BR,1643912951,-9.9747,-67.81,86.61,70,75,4.61
villarrobledo,ES,1643912952,39.2699,-2.6012,56.79,42,85,10.18
eenhana,NA,1643912838,-17.4667,16.3333,77.54,36,47,4.61
kiunga,PG,1643912952,-6.1219,141.2906,71.94,92,100,2.51
port-cartier,CA,1643912953,50.0334,-66.8654,16.75,72,100,12.1
sur,OM,1643912954,22.5667,59.5289,69.82,56,0,10.56
sorland,NO,1643912954,67.667,12.6934,28.26,67,97,26.8
camacha,PT,1643912955,33.0833,-16.3333,64.53,82,40,9.22
bandarbeyla,SO,1643912955,9.4942,50.8122,76.12,66,3,17.94
victoria,HK,1643912815,22.2855,114.1577,56.32,81,100,1.01
westport,US,1643912956,41.1415,-73.3579,45.82,95,100,1.52
sinnamary,GF,1643912957,5.3833,-52.95,79.48,81,43,11.1
lagoa,PT,1643912957,39.05,-27.9833,57.54,74,98,11.63
upernavik,GL,1643912958,72.7868,-56.1549,-4.22,66,100,4.9
sekoma,BW,1643912958,-24.4,23.8833,75.96,65,53,9.84
huarmey,PE,1643912959,-10.0681,-78.1522,77.02,69,92,12.93
itoman,JP,1643912959,26.1247,127.6694,62.62,96,100,6.91
hirara,JP,1643912960,24.8,125.2833,68.43,76,96,19.28
geraldton,AU,1643912960,-28.7667,114.6,68.41,60,0,6.91
ponta do sol,PT,1643912835,32.6667,-17.1,68.0,73,82,7.49
plettenberg bay,ZA,1643912961,-34.0527,23.3716,66.24,80,90,10.04
tuktoyaktuk,CA,1643912916,69.4541,-133.0374,-18.4,76,75,9.22
arman,RU,1643912962,59.7,150.1667,2.98,75,71,11.23
iranshahr,IR,1643912962,27.2025,60.6848,57.54,28,0,0.0
cabral,DO,1643912963,18.25,-71.2167,87.66,58,40,11.5
rafaela,AR,1643912963,-31.2503,-61.4867,89.06,49,100,3.0
barra do garcas,BR,1643912964,-15.89,-52.2567,75.78,94,75,6.6
mathbaria,BD,1643912964,22.2876,89.9593,66.61,84,1,4.92
bonthe,SL,1643912965,7.5264,-12.505,83.62,65,2,12.59
tasiilaq,GL,1643912965,65.6145,-37.6368,14.16,58,56,7.31
lowestoft,GB,1643912966,52.4752,1.7516,47.95,88,82,13.02
ivanteyevka,RU,1643912966,55.9711,37.9208,23.74,98,100,3.44
katsuura,JP,1643912760,35.1333,140.3,42.19,61,97,13.62
khatanga,RU,1643912967,71.9667,102.5,-33.74,100,28,2.62
mzimba,MW,1643912967,-11.9,33.6,64.98,92,72,2.98
lebu,CL,1643912968,-37.6167,-73.65,64.92,78,90,12.97
nueva loja,EC,1643912968,0.0847,-76.8828,82.42,78,75,8.05
alekseyevka,RU,1643912969,50.6309,38.6903,31.17,98,100,7.4
bredasdorp,ZA,1643912969,-34.5322,20.0403,64.27,68,56,16.11
saskylakh,RU,1643912970,71.9167,114.0833,-23.58,99,100,1.23
yar-sale,RU,1643912970,66.8333,70.8333,-15.97,100,52,5.77
arlit,NE,1643912971,18.7369,7.3853,66.27,12,0,14.09
ullapool,GB,1643912971,57.8987,-5.1604,40.35,76,99,22.68
san policarpo,PH,1643912972,12.1791,125.5072,79.83,86,95,15.59
inirida,CO,1643912972,3.8653,-67.9239,85.19,59,98,2.08
port blair,IN,1643912973,11.6667,92.75,75.24,88,40,2.3
comodoro rivadavia,AR,1643912974,-45.8667,-67.5,66.06,63,75,9.22
pinotepa nacional,MX,1643912974,16.3167,-98.0167,88.36,30,0,5.7
agadez,NE,1643912975,19.75,10.25,57.83,18,0,7.25
grand gaube,MU,1643912975,-20.0064,57.6608,81.0,85,100,15.99
royan,FR,1643912976,45.6285,-1.0281,46.44,92,100,4.47
tiksi,RU,1643912976,71.6872,128.8694,-10.05,100,100,2.64
ketchikan,US,1643912977,55.3422,-131.6461,42.78,93,100,9.22
ribas do rio pardo,BR,1643912944,-20.4431,-53.7592,84.42,71,91,11.16
bria,CF,1643912978,6.5423,21.9863,83.93,19,90,3.29
beringovskiy,RU,1643912978,63.05,179.3167,0.88,78,100,20.76
nogliki,RU,1643912979,51.8333,143.1667,6.01,93,100,19.8
san patricio,US,1643912979,28.017,-97.5169,41.02,78,100,19.84
los llanos de aridane,ES,1643912826,28.6585,-17.9182,67.12,75,20,2.3
kaitangata,NZ,1643912755,-46.2817,169.8464,48.96,94,100,3.67
farah,AF,1643912980,32.5,62.5,45.75,29,10,3.91
bambous virieux,MU,1643912981,-20.3428,57.7575,80.85,89,75,25.32
new richmond,US,1643912709,45.123,-92.5366,4.21,46,0,0.0
katobu,ID,1643912981,-4.9408,122.5276,75.97,89,97,2.33
mahebourg,MU,1643912982,-20.4081,57.7,80.89,89,75,25.32
bonoua,CI,1643912983,5.2741,-3.595,83.82,67,21,7.94
tezu,IN,1643912983,27.9167,96.1667,53.94,65,69,4.65
ust-maya,RU,1643912984,60.4167,134.5333,-18.98,99,100,2.33
progreso,MX,1643912984,21.2833,-89.6667,90.1,45,52,11.74
vardo,NO,1643912985,70.3705,31.1107,22.98,86,75,10.36
ashland,US,1643912985,40.8167,-82.2665,27.68,95,100,17.81
taoudenni,ML,1643912986,22.6783,-3.9836,73.08,14,1,9.75
senador jose porfirio,BR,1643912986,-2.5908,-51.9542,82.65,72,100,2.77
salalah,OM,1643912987,17.0151,54.0924,75.29,73,20,0.0
zhangjiakou,CN,1643912987,40.81,114.8794,7.18,64,22,8.57
mae ramat,TH,1643912987,16.984,98.5166,66.56,61,2,1.74
rong kwang,TH,1643912988,18.339,100.3174,74.55,68,23,2.53
saint-andre-les-vergers,FR,1643912989,48.2853,4.0521,46.44,81,100,5.75
lavrentiya,RU,1643912754,65.5833,-171.0,-1.75,63,3,24.18
bethel,US,1643912977,41.3712,-73.414,44.08,100,100,1.19
imbituba,BR,1643912989,-28.24,-48.6703,85.89,67,16,21.52
georgetown,MY,1643912990,5.4112,100.3354,82.33,88,20,2.3
tura,IN,1643912990,25.5198,90.2201,61.5,54,35,5.41
lalibela,ET,1643912991,12.0333,39.0333,62.22,44,95,8.88
lichinga,MZ,1643912956,-13.3128,35.2406,68.09,88,75,9.22
kiruna,SE,1643912992,67.8557,20.2251,-10.28,77,75,3.44
kvitok,RU,1643912992,56.0724,98.4813,-7.31,100,97,2.62
provideniya,RU,1643912992,64.3833,-173.3,1.26,68,40,21.74
pilane,BW,1643912993,-24.45,26.1333,81.16,50,79,6.85
mbekenyera,TZ,1643912994,-10.0,38.9833,72.68,98,44,4.54
bopfingen,DE,1643912994,48.85,10.35,42.69,92,100,3.58
marystown,CA,1643912995,47.1666,-55.1483,37.85,100,100,1.99
dunedin,NZ,1643912996,-45.8742,170.5036,53.8,90,100,2.64
tolaga bay,NZ,1643912996,-38.3667,178.3,59.5,85,23,4.61
richards bay,ZA,1643912997,-28.783,32.0377,79.38,88,2,7.38
corner brook,CA,1643912997,48.9667,-57.9484,39.36,98,100,11.79
luziania,BR,1643912998,-16.2525,-47.9503,83.89,61,75,5.48
kirovsk,UA,1643912999,48.6375,38.6428,31.91,99,100,6.62
karasburg,NA,1643912999,-28.0167,18.75,80.94,27,11,11.92
epe,NG,1643913000,6.5841,3.9834,81.19,68,98,7.81
touros,BR,1643913001,-5.1989,-35.4608,86.9,67,69,14.61
thompson,CA,1643912930,55.7435,-97.8558,-16.44,63,40,8.05
turinsk,RU,1643913002,58.0458,63.696,25.72,96,100,9.53
coquimbo,CL,1643913002,-29.9533,-71.3436,68.76,69,14,8.46
komsomolskiy,UZ,1643913003,40.4272,71.7189,35.02,86,6,6.91
clyde river,CA,1643913004,70.4692,-68.5914,-12.77,77,100,27.63
acajutla,SV,1643913004,13.5928,-89.8275,95.34,58,2,10.09
ancud,CL,1643913005,-41.8697,-73.8203,65.73,87,73,6.15
sao joao da barra,BR,1643912981,-21.6403,-41.0511,80.69,88,95,11.5
owando,CG,1643913006,-0.4819,15.8999,77.54,67,49,3.4
cockburn town,TC,1643913006,21.4612,-71.1419,75.16,76,25,24.29
kedrovyy,RU,1643913006,56.1667,91.8167,-6.14,98,85,4.12
kajaani,FI,1643913007,64.2273,27.7285,-12.95,84,100,1.14
north bend,US,1643913007,43.4065,-124.2243,46.85,96,0,6.91
laje,BR,1643913008,-10.1833,-40.9667,91.18,29,81,7.52
xiaoweizhai,CN,1643913009,26.1903,107.5125,36.5,86,100,5.23
ostrovnoy,RU,1643913009,68.0531,39.5131,12.79,81,100,0.89
churapcha,RU,1643913010,62.0025,132.4325,-22.54,100,100,3.69
aasiaat,GL,1643913010,68.7098,-52.8699,9.45,86,100,9.17
makakilo city,US,1643913011,21.3469,-158.0858,73.29,69,0,4.61
mount gambier,AU,1643912967,-37.8333,140.7667,57.11,67,100,6.91
omboue,GA,1643913011,-1.5746,9.2618,77.32,83,93,4.63
veraval,IN,1643913012,20.9,70.3667,67.59,53,0,11.54
lao cai,VN,1643913012,22.4833,103.95,53.85,93,92,1.14
senanga,ZM,1643913013,-16.1167,23.2667,66.27,97,100,5.95
develi,TR,1643913013,38.3906,35.4922,38.55,93,100,6.6
haines junction,CA,1643913014,60.7522,-137.5108,-7.65,71,100,0.0
hackettstown,US,1643913014,40.854,-74.8291,43.29,95,100,0.0
vila velha,BR,1643912879,-20.3297,-40.2925,77.95,89,75,1.99
port augusta,AU,1643913015,-32.5,137.7667,60.94,58,0,7.05
karangasem,ID,1643913016,-8.45,115.6167,77.88,75,100,4.83
twin falls,US,1643913016,42.3505,-114.6445,19.92,86,100,0.0
ishigaki,JP,1643913017,24.3448,124.1572,69.73,74,82,18.63
buraydah,SA,1643913017,26.326,43.975,68.45,30,0,10.02
ambatondrazaka,MG,1643913018,-17.8333,48.4167,64.56,93,100,4.54
mandali,IQ,1643913018,33.7499,45.5541,58.39,38,100,14.16
hambantota,LK,1643913019,6.1241,81.1185,75.54,100,20,4.61
skibbereen,IE,1643913019,51.55,-9.2667,52.11,87,100,24.61
tactic,GT,1643913020,15.3333,-90.3,72.0,41,20,4.61
codrington,AU,1643913021,-38.2667,141.9667,59.16,70,100,12.35
kaeo,NZ,1643913021,-35.1,173.7833,70.32,92,77,10.33
waipawa,NZ,1643913022,-41.4122,175.5153,66.83,70,20,7.23
udachnyy,RU,1643913022,66.4167,112.4,-24.48,99,100,1.97
lasa,IT,1643913023,46.6166,10.7002,40.46,82,97,3.15
kruisfontein,ZA,1643913023,-34.0033,24.7314,65.88,75,75,15.59
taybad,IR,1643913024,34.74,60.7756,44.17,46,1,1.81
urusha,RU,1643913024,54.05,122.9,-11.45,85,16,4.72
saint-pierre,RE,1643913025,-21.3393,55.4781,80.24,94,75,37.98
constitucion,CL,1643913025,-35.3333,-72.4167,67.86,66,10,7.78
alofi,NU,1643912905,-19.0595,-169.9187,75.09,94,95,2.3
yulara,AU,1643913026,-25.2406,130.9889,62.44,59,81,8.05
tanete,ID,1643913027,-3.9443,119.7848,75.78,89,100,3.18
gwadar,PK,1643913027,25.1216,62.3254,69.55,51,0,10.85
pisco,PE,1643913028,-13.7,-76.2167,74.01,78,0,8.05
tecoanapa,MX,1643913029,16.5167,-98.75,81.12,60,0,10.29
marsaxlokk,MT,1643913029,35.8419,14.5431,59.07,58,0,17.27
husavik,IS,1643913030,66.0449,-17.3389,17.51,92,100,21.12
half moon bay,US,1643913018,37.4636,-122.4286,60.96,63,0,8.05
sabang,ID,1643913030,5.8933,95.3214,80.56,77,42,2.19
nantucket,US,1643913031,41.2835,-70.0995,48.31,93,100,5.75
fortuna,US,1643912910,40.5982,-124.1573,49.93,82,75,1.99
sinop,TR,1643913031,41.7711,34.8709,37.09,99,100,4.7
jalu,LY,1643913032,29.0331,21.5482,54.01,62,14,17.09
hohhot,CN,1643913033,40.8106,111.6522,3.49,55,0,2.24
bambanglipuro,ID,1643913033,-7.95,110.2833,64.6,85,90,3.62
pandharpur,IN,1643913034,17.6667,75.3333,70.52,41,32,9.44
ternate,ID,1643913034,0.8,127.4,78.98,82,100,5.17
nouadhibou,MR,1643913035,20.931,-17.0347,85.98,17,0,8.05
saint stephen,GB,1643913035,50.3333,-4.9,49.75,87,40,10.36
nouakchott,MR,1643913036,18.0858,-15.9785,89.53,21,0,11.61
cururupu,BR,1643913037,-1.8283,-44.8683,83.35,70,88,6.49
mehamn,NO,1643913037,71.0357,27.8492,24.98,93,75,9.22
jeremie,HT,1643913037,18.65,-74.1167,78.96,75,27,4.92
grand baie,MU,1643912839,-20.0182,57.5802,81.07,86,100,15.99
aykhal,RU,1643913038,66.0,111.5,-21.05,100,100,2.19
esperance,AU,1643913039,-33.8667,121.9,62.44,77,0,16.28
salamiyah,SY,1643913039,35.0113,37.0532,48.92,71,86,3.36
kamenka,RU,1643913040,51.3223,42.7678,32.76,100,100,5.66
havelock,US,1643913041,34.8791,-76.9013,73.35,71,100,10.0
la rioja,ES,1643913041,42.25,-2.5,49.32,58,100,2.39
fort-shevchenko,KZ,1643913042,44.5086,50.263,44.8,89,11,21.36
rogers,US,1643913043,36.3668,-95.5836,19.92,80,100,8.01
ust-kulom,RU,1643913043,61.6864,53.6902,11.97,97,100,3.56
maceio,BR,1643913043,-9.6658,-35.7353,89.04,58,20,14.97
dwarka,IN,1643913044,22.2394,68.9678,69.66,47,0,9.35
hay river,CA,1643913015,60.8156,-115.7999,-25.62,75,20,5.75
douentza,ML,1643913045,14.9951,-2.9517,75.92,11,0,7.52
port shepstone,ZA,1643913045,-30.7414,30.455,76.01,93,100,23.38
najran,SA,1643913046,17.4924,44.1277,63.25,30,10,1.77
concepcion,CL,1643913001,-36.827,-73.0498,69.51,65,54,10.78
solton,RU,1643913047,52.8429,86.4787,-3.28,100,99,1.66
port lincoln,AU,1643913047,-34.7333,135.8667,61.7,73,61,15.1
severo-yeniseyskiy,RU,1643913048,60.3725,93.0408,12.7,90,100,11.16
adrar,MR,1643913049,20.5022,-10.0711,70.47,12,0,10.11
petatlan,MX,1643913049,17.5167,-101.2667,85.8,39,0,5.57
cherskiy,RU,1643913050,68.75,161.3,-28.52,99,6,1.3
trairi,BR,1643912928,-3.2778,-39.2689,85.33,64,100,13.29
kieta,PG,1643913050,-6.2167,155.6333,77.52,90,100,6.89
kultuk,RU,1643913051,51.7208,103.6956,1.22,93,78,4.41
nevers,FR,1643913051,46.9167,3.3333,41.59,87,75,11.5
umm lajj,SA,1643913052,25.0213,37.2685,69.89,57,0,3.62
havre-saint-pierre,CA,1643913052,50.2334,-63.5986,30.56,86,100,26.46
talara,PE,1643913053,-4.5772,-81.2719,86.76,48,0,16.11
mutsu,JP,1643913053,41.2894,141.2169,24.01,82,92,13.49
carauari,BR,1643913053,-4.8828,-66.8958,83.23,77,93,4.7
filadelfia,US,1643913034,39.9523,-75.1638,48.22,90,100,0.0
antalaha,MG,1643913054,-14.9003,50.2788,77.58,83,100,5.32
hit,IQ,1643913055,33.6416,42.8251,57.29,32,0,12.28
taunggyi,MM,1643913055,20.7833,97.0333,47.41,62,4,0.67
champerico,GT,1643913056,14.3,-91.9167,91.94,57,5,9.44
reconquista,AR,1643913057,-29.15,-59.65,81.84,60,100,5.44
kupang,ID,1643913057,-10.1667,123.5833,77.92,88,100,10.4
acapulco,MX,1643912765,16.8634,-99.8901,85.82,54,0,3.44
daltenganj,IN,1643913058,24.0333,84.0667,61.5,60,37,4.03
robertsport,LR,1643913059,6.7533,-11.3686,80.62,80,1,10.85
souillac,MU,1643913059,-20.5167,57.5167,80.98,89,75,25.32
tabas,IR,1643913060,33.5959,56.9244,50.61,32,100,1.43
frederico westphalen,BR,1643913060,-27.3592,-53.3944,89.64,28,80,8.08
quimper,FR,1643913061,48.0,-4.1,49.03,81,100,3.44
nichinan,JP,1643913061,31.6,131.3667,42.64,82,81,5.73
pila,PL,1643913062,53.1515,16.7378,37.8,98,100,8.46
mulchen,CL,1643913062,-37.7167,-72.2333,88.56,23,48,5.95
livingston,GB,1643912764,55.9029,-3.5226,49.28,83,20,28.77
coihaique,CL,1643913017,-45.5752,-72.0662,72.21,52,75,8.05
saint-francois,FR,1643912981,46.4154,3.9054,44.04,87,0,6.91
pangnirtung,CA,1643913063,66.1451,-65.7125,1.4,85,100,17.27
marinette,US,1643912832,45.1,-87.6307,11.71,52,0,9.22
mareeba,AU,1643913064,-17.0,145.4333,72.48,96,100,7.0
faanui,PF,1643913064,-16.4833,-151.75,80.04,77,100,18.41
kavieng,PG,1643913065,-2.5744,150.7967,80.67,79,100,7.83
delta,NG,1643913066,5.5,6.0,83.88,59,100,7.47
cairns,AU,1643913005,-16.9167,145.7667,77.11,92,75,5.75
cidreira,BR,1643913067,-30.1811,-50.2056,80.4,75,66,17.56
kisangani,CD,1643913067,0.5167,25.2,78.69,64,99,4.83
paamiut,GL,1643913068,61.994,-49.6678,21.74,93,100,14.14
zalantun,CN,1643913069,48.0,122.7167,-8.43,85,9,7.67
sosua,DO,1643913069,19.7667,-70.5167,85.98,88,100,11.5
mabaruma,GY,1643913069,8.2,-59.7833,81.09,72,28,7.11
sechura,PE,1643913070,-5.5569,-80.8222,83.21,50,50,16.78
mossendjo,CG,1643913071,-2.9506,12.7261,69.49,97,81,1.19
diffa,NE,1643913072,13.3154,12.6113,67.1,15,4,8.16
bozova,TR,1643913072,37.3625,38.5267,45.52,88,99,12.33
srandakan,ID,1643913073,-7.9386,110.2506,64.72,85,97,3.71
marabba,SD,1643913073,12.35,32.1833,84.06,15,100,11.3
grindavik,IS,1643913074,63.8424,-22.4338,25.27,80,75,13.8
boa vista,BR,1643913074,2.8197,-60.6733,89.58,43,75,11.5
aksarka,RU,1643913075,66.5606,67.7975,-19.17,100,99,4.85
boende,CD,1643913076,-0.2167,20.8667,71.08,71,100,3.24
nerang,AU,1643913076,-27.9833,153.3333,69.58,86,10,1.99
kununurra,AU,1643913056,-15.7667,128.7333,78.78,100,100,2.3
dikson,RU,1643913077,73.5069,80.5464,-16.42,99,100,5.08
beyneu,KZ,1643913077,45.3167,55.2,36.37,69,35,21.23
pacific grove,US,1643913078,36.6177,-121.9166,61.81,65,93,1.01
alice springs,AU,1643912965,-23.7,133.8833,58.55,82,96,6.91
mpulungu,ZM,1643913079,-8.7623,31.1141,72.05,89,100,1.05
puerto escondido,MX,1643913080,15.85,-97.0667,83.98,54,1,9.28
letlhakane,BW,1643913080,-21.4167,25.5833,77.04,59,15,9.82
molina,CL,1643913081,-35.1167,-71.2833,87.19,22,98,13.02
praia,CV,1643913081,14.9215,-23.5087,82.94,44,0,14.97
southbridge,US,1643913082,42.0751,-72.0334,45.66,100,100,2.8
hargeysa,SO,1643913082,9.56,44.065,58.51,53,3,10.09
mamlyutka,KZ,1643913083,54.9375,68.5394,20.37,83,100,15.23
mandalgovi,MN,1643913083,45.7625,106.2708,2.57,76,4,9.78
mitsamiouli,KM,1643913083,-11.3847,43.2844,82.69,83,20,5.75
kushmurun,KZ,1643913084,52.4503,64.6311,13.55,89,100,14.74
hoganas,SE,1643913084,56.1997,12.558,44.46,94,100,15.41
san quintin,MX,1643913085,30.4833,-115.95,60.44,45,0,8.61
big spring,US,1643913085,32.2504,-101.4787,23.27,67,75,7.0
nivala,FI,1643913086,63.9167,24.9667,-2.31,100,92,2.8
pak phanang,TH,1643913087,8.3511,100.202,79.07,82,10,7.99
belyy yar,RU,1643913087,53.6039,91.3903,-16.15,88,20,2.24
makaryev,RU,1643913088,57.8797,43.8069,1.11,100,100,2.24
puerto maldonado,PE,1643913088,-12.6,-69.1833,91.8,55,40,8.05
san andres,CO,1643913089,12.5847,-81.7006,86.02,66,20,13.8
itanagar,IN,1643913090,27.1,93.6167,52.72,74,67,4.38
hualmay,PE,1643913090,-11.0964,-77.6139,76.46,69,22,12.08
vadu pasii,RO,1643913091,45.1667,26.9,33.19,69,16,5.39
bundi,IN,1643913091,25.4417,75.6417,56.52,51,0,5.41
khandyga,RU,1643913092,62.6667,135.6,-28.12,99,100,1.25
ahipara,NZ,1643912916,-35.1667,173.1667,69.57,90,88,12.57
kropotkin,RU,1643913093,45.4375,40.5756,39.0,84,100,5.55
cayenne,GF,1643913093,4.9333,-52.3333,78.84,90,75,3.0
cariati,IT,1643913094,39.4922,16.9594,49.75,58,0,18.41
srednekolymsk,RU,1643913094,67.45,153.6833,-34.58,100,62,2.48
thurso,GB,1643913094,58.5927,-3.5259,39.45,73,100,28.43
lata,PT,1643913095,40.1629,-8.3327,55.81,90,100,1.86
sosnovo-ozerskoye,RU,1643913095,52.5249,111.5418,-26.55,100,92,3.31
tshela,CD,1643913096,-4.9833,12.9333,73.53,95,52,2.26
san luis,AR,1643913096,-33.295,-66.3356,90.68,22,14,11.99
sangmelima,CM,1643913097,2.9333,11.9833,73.27,73,48,3.18
bengkulu,ID,1643913097,-3.8004,102.2655,75.97,90,100,4.88
broken hill,AU,1643913098,-31.95,141.4333,60.51,51,0,12.66
yerbogachen,RU,1643913098,61.2767,108.0108,-0.49,99,98,3.4
bilma,NE,1643913099,18.6853,12.9164,60.08,18,0,11.34
koslan,RU,1643913099,63.4564,48.8989,11.14,99,100,3.13
clovis,US,1643913079,36.8252,-119.7029,59.13,61,0,5.01
jacareacanga,BR,1643913100,-6.2222,-57.7528,89.55,51,93,3.94
marquette,US,1643913100,46.5333,-87.6335,9.34,64,100,7.96
mahon,ES,1643913101,39.8885,4.2658,55.96,94,0,10.36
mount isa,AU,1643913101,-20.7333,139.5,73.17,40,100,13.8
lucea,JM,1643913102,18.451,-78.1736,82.85,73,5,11.61
seoul,KR,1643913044,37.5683,126.9778,24.24,66,0,2.3
quesnel,CA,1643913015,52.9999,-122.5029,23.5,80,40,6.91
requena,ES,1643913103,39.4883,-1.1004,51.78,42,100,8.23
tambura,SS,1643913019,5.6,27.4667,81.43,24,100,4.36
saint-joseph,RE,1643913103,-21.3667,55.6167,79.16,91,100,36.53
rawson,AR,1643913104,-43.3002,-65.1023,77.49,40,64,8.86
urcos,PE,1643913104,-13.6861,-71.6228,58.89,64,96,5.21
sangar,RU,1643913105,63.9242,127.4739,-24.41,99,100,2.46
beloha,MG,1643913106,-25.1667,45.05,74.08,86,26,17.94
porto belo,BR,1643913106,-27.1578,-48.5531,90.79,77,13,14.67
te anau,NZ,1643913107,-45.4167,167.7167,47.23,97,100,4.56
korem,ET,1643913107,12.5058,39.5228,55.13,49,84,5.21
araouane,ML,1643913108,18.9048,-3.5265,71.91,9,0,9.48
vestmannaeyjar,IS,1643912930,63.4427,-20.2734,25.79,80,0,17.27
el prat de llobregat,ES,1643913109,41.3278,2.0947,63.05,82,40,10.36
mut,TR,1643913109,36.6439,33.4389,43.21,96,95,3.44
santa isabel do rio negro,BR,1643913110,-0.4139,-65.0192,79.68,84,100,3.33
laguna,US,1643913110,38.421,-121.4238,58.23,62,0,1.01
ashington,GB,1643913111,50.9331,-0.3909,50.38,72,75,4.0
caravelas,BR,1643913056,-17.7125,-39.2481,83.91,62,88,8.9
liwale,TZ,1643913111,-9.7667,37.9333,71.29,97,55,3.47
katangli,RU,1643913112,51.7102,143.2326,5.76,93,100,18.28
powell river,CA,1643913112,49.8496,-124.5361,39.2,100,100,3.44
moose factory,CA,1643913113,51.2585,-80.6094,-7.6,49,0,12.66
coahuayana,MX,1643913113,18.7333,-103.6833,85.48,29,0,6.93
zaqatala,AZ,1643913114,41.6336,46.6433,43.27,53,40,4.61
anshun,CN,1643913114,26.25,105.9333,34.95,93,100,8.88
kalmunai,LK,1643913115,7.4167,81.8167,74.93,78,0,2.15
ugoofaaru,MV,1643913115,5.6667,73.0,80.71,74,5,3.83
sauda,NO,1643913116,59.6506,6.3542,46.69,99,100,4.61
jhang,PK,1643913116,33.6748,72.6963,48.61,92,3,6.98
korhogo,CI,1643913117,9.45,-5.6333,78.64,9,7,4.9
podgornoye,RU,1643913117,51.735,39.1496,26.82,100,100,4.47
russell,US,1643913118,32.3502,-85.1999,69.12,87,75,11.5
deputatskiy,RU,1643913119,69.3,139.9,-24.16,95,97,1.54
salinas,US,1643913119,36.6777,-121.6555,62.2,50,0,11.5
guarapari,BR,1643913120,-20.6667,-40.4975,77.9,87,100,2.64
cervo,ES,1643913120,43.6702,-7.4101,52.97,80,36,7.58
marietta,US,1643912825,33.9526,-84.5499,62.28,96,100,4.61
umm kaddadah,SD,1643913121,13.6017,26.6876,74.62,15,22,13.73
kifri,IQ,1643913121,34.6959,44.9661,55.76,44,100,8.28
kawalu,ID,1643913122,-7.3817,108.2082,71.64,93,96,3.78
havoysund,NO,1643913123,70.9963,24.6622,25.03,77,99,14.56
isangel,VU,1643913123,-19.55,169.2667,77.11,94,100,7.2
qasigiannguit,GL,1643913124,68.8193,-51.1922,17.85,62,100,15.64
la ronge,CA,1643913124,55.1001,-105.2842,-21.75,57,40,5.75
tucurui,BR,1643913125,-3.7661,-49.6725,84.13,71,100,1.68
vorobyevka,RU,1643913126,50.6451,40.9245,32.68,99,100,3.58
huanren,CN,1643913126,41.2647,125.3667,1.67,92,5,0.96
pembroke,CA,1643913000,45.8168,-77.1162,15.67,69,100,9.01
aksu,CN,1643913127,41.1231,80.2644,26.19,53,100,3.58
luba,GQ,1643913127,3.4568,8.5547,82.29,74,10,9.42
eureka,US,1643912993,40.8021,-124.1637,50.2,81,100,3.0
puerto suarez,BO,1643913128,-18.95,-57.8,82.76,69,75,0.0
tsabong,BW,1643913129,-26.0217,22.401,79.34,32,0,10.31
ternovka,RU,1643913130,51.678,41.6375,31.73,99,100,8.28
manado,ID,1643913130,1.487,124.8455,75.97,94,40,2.3
basco,PH,1643913131,20.4487,121.9702,75.22,79,50,16.67
guider,CM,1643913131,9.9342,13.9486,76.96,12,2,8.08
praia da vitoria,PT,1643913132,38.7333,-27.0667,61.75,88,40,12.64
pangai,TO,1643913132,-19.8,-174.35,81.5,79,91,20.76
bonavista,CA,1643913133,48.6499,-53.1147,37.11,81,100,25.03
abomey,BJ,1643913133,7.1829,1.9912,84.56,39,3,5.7
ambon,ID,1643913134,-3.6954,128.1814,77.14,94,40,5.75
kuching,MY,1643913135,1.55,110.3333,79.02,83,40,3.44
chumphon,TH,1643913135,10.3333,98.8333,69.57,96,19,2.24
chemainus,CA,1643913136,48.9163,-123.7194,43.52,98,100,0.0
pandamatenga,BW,1643913137,-18.5278,25.627,70.57,78,4,6.02
bima,ID,1643913137,-8.4667,118.7167,75.94,93,100,1.21
milyutinskaya,RU,1643913138,48.6279,41.6679,37.99,98,100,8.3
sarahan,IN,1643913138,31.5167,77.8,29.77,85,100,4.14
tamale,GH,1643913139,9.4008,-0.8393,84.33,9,5,5.32
manzhouli,CN,1643913139,49.6,117.4333,-15.77,92,9,6.91
calabozo,VE,1643913140,8.9242,-67.4293,95.61,31,71,6.96
rabo de peixe,PT,1643913141,37.8,-25.5833,62.28,86,20,14.97
cap malheureux,MU,1643913066,-19.9842,57.6142,81.09,85,100,15.99
nongan,CN,1643913141,44.382,125.1685,-1.79,91,7,4.88
kovernino,RU,1643913142,57.1253,43.8142,4.53,100,98,3.09
mnogovershinnyy,RU,1643913143,53.9353,139.9242,-4.34,96,100,6.35
kargasok,RU,1643913143,59.0556,80.8572,9.59,97,70,7.87
umba,RU,1643913144,66.6871,34.3429,0.5,98,95,3.78
tsuyama,JP,1643913144,35.05,134.0,36.36,79,82,3.0
aswan,EG,1643913145,24.0934,32.907,65.5,24,0,12.66
suozhen,CN,1643913145,36.9539,118.1047,28.27,52,100,4.79
khowai,IN,1643913146,24.1,91.6333,61.14,63,100,3.83
aripuana,BR,1643913146,-9.1667,-60.6333,80.56,87,100,0.85
bereda,ES,1643913147,43.2686,-7.5406,51.01,86,49,3.29
gushikawa,JP,1643913147,26.3544,127.8686,61.83,95,75,5.75
sing buri,TH,1643913148,14.85,100.2333,82.09,76,9,4.97
wasilla,US,1643912905,61.5814,-149.4394,26.4,65,100,8.05
hervey bay,AU,1643913148,-25.2986,152.8535,72.03,96,100,8.99
cheremukhovo,RU,1643913149,60.3484,59.9851,14.83,98,100,1.54
bermejo,AR,1643913150,-32.8833,-68.8,80.51,54,75,5.75
lewiston,US,1643913150,44.1003,-70.2148,44.85,93,100,0.0
maryborough,AU,1643913151,-25.5333,152.7,72.1,93,100,9.6
shupiyan,IN,1643912936,33.7167,74.8333,31.42,98,100,1.34
berlevag,NO,1643913151,70.8578,29.0864,22.95,74,75,4.61
yushu,CN,1643913152,44.8,126.5333,-4.95,99,82,3.49
nauta,PE,1643913152,-4.5061,-73.5757,79.86,90,100,1.72
kapoeta,SS,1643913130,4.7717,33.5903,86.49,29,100,2.95
meulaboh,ID,1643913154,4.1363,96.1285,75.81,86,97,4.12
rodrigues alves,BR,1643913154,-7.738,-72.6509,82.6,82,99,2.44
luxor,EG,1643913155,25.6989,32.6421,60.85,31,0,4.61
college,US,1643913011,64.8569,-147.8028,-0.74,64,75,8.05
bluefield,US,1643913156,37.2698,-81.2223,52.36,76,100,11.5
zeya,RU,1643913156,53.75,127.2667,-10.34,87,85,4.52
muros,ES,1643913156,42.7762,-9.0603,55.69,89,100,5.64
chengde,CN,1643913157,40.9725,117.9361,10.89,50,0,7.4
lagos,NG,1643913158,6.5833,3.75,84.52,76,100,6.44
okhotsk,RU,1643913158,59.3833,143.3,1.96,76,73,18.07
gimli,CA,1643912982,50.6336,-96.9907,-12.57,64,22,12.66
jurado,CO,1643913159,7.1053,-77.7641,80.74,77,100,5.14
fairbanks,US,1643912894,64.8378,-147.7164,-14.8,62,0,5.75
vagay,RU,1643912944,57.9375,69.0217,23.5,88,100,11.65
aden,YE,1643913160,12.7794,45.0367,78.13,60,0,9.44
rutland,US,1643913008,43.6167,-73.0162,42.24,94,100,1.01
revelstoke,CA,1643913161,50.9832,-118.2023,17.62,93,100,0.0
sanchursk,RU,1643913161,56.9413,47.2499,4.37,100,100,3.13
port hardy,CA,1643913162,50.6996,-127.4199,42.76,93,100,13.8
